[
  {
    "location": "Saidapet",
    "latitude": 13.0213,
    "longitude": 80.2127,
    "date": "2024-10-29T08:03:00Z"
  },
  {
    "location": "Intermediate Point",
    "latitude": 13.0167,
    "longitude": 80.2128,
    "date": "2024-10-29T08:03:30Z"
  },
  {
    "location": "Intermediate Point",
    "latitude": 13.0142,
    "longitude": 80.2129,
    "date": "2024-10-29T08:04:00Z"
  },
  {
    "location": "Intermediate Point",
    "latitude": 13.0121,
    "longitude": 80.213,
    "date": "2024-10-29T08:04:30Z"
  },
  {
    "location": "Guindy",
    "latitude": 13.0101,
    "longitude": 80.2129,
    "date": "2024-10-29T08:05:00Z"
  },
  {
    "location": "Intermediate Point",
    "latitude": 13.0078,
    "longitude": 80.2118,
    "date": "2024-10-29T08:05:30Z"
  },
  {
    "location": "Intermediate Point",
    "latitude": 13.0064,
    "longitude": 80.2105,
    "date": "2024-10-29T08:06:00Z"
  },
  {
    "location": "Intermediate Point",
    "latitude": 13.0057,
    "longitude": 80.2101,
    "date": "2024-10-29T08:06:30Z"
  },
  {
    "location": "Mount Road",
    "latitude": 13.0054,
    "longitude": 80.2098,
    "date": "2024-10-29T08:07:00Z"
  },
  {
    "location": "Intermediate Point",
    "latitude": 13.0042,
    "longitude": 80.2087,
    "date": "2024-10-29T08:07:30Z"
  },
  {
    "location": "Intermediate Point",
    "latitude": 13.0033,
    "longitude": 80.2056,
    "date": "2024-10-29T08:08:00Z"
  },
  {
    "location": "Intermediate Point",
    "latitude": 13.0027,
    "longitude": 80.204,
    "date": "2024-10-29T08:08:30Z"
  },
  {
    "location": "St. Thomas Mount",
    "latitude": 13.0022,
    "longitude": 80.2017,
    "date": "2024-10-29T08:09:00Z"
  },
  {
    "location": "Intermediate Point",
    "latitude": 13.0011,
    "longitude": 80.1998,
    "date": "2024-10-29T08:09:30Z"
  },
  {
    "location": "Intermediate Point",
    "latitude": 12.9987,
    "longitude": 80.1975,
    "date": "2024-10-29T08:10:00Z"
  },
  {
    "location": "Intermediate Point",
    "latitude": 12.9965,
    "longitude": 80.1959,
    "date": "2024-10-29T08:10:30Z"
  },
  {
    "location": "Intermediate Point",
    "latitude": 12.9938,
    "longitude": 80.1928,
    "date": "2024-10-29T08:11:00Z"
  },
  {
    "location": "Intermediate Point",
    "latitude": 12.9918,
    "longitude": 80.1906,
    "date": "2024-10-29T08:11:30Z"
  },
  {
    "location": "Intermediate Point",
    "latitude": 12.9907,
    "longitude": 80.1874,
    "date": "2024-10-29T08:12:00Z"
  },
  {
    "location": "Meenambakkam",
    "latitude": 12.9903,
    "longitude": 80.1841,
    "date": "2024-10-29T08:13:00Z"
  },
  {
    "location": "Intermediate Point",
    "latitude": 12.9876,
    "longitude": 80.181,
    "date": "2024-10-29T08:13:30Z"
  },
  {
    "location": "Intermediate Point",
    "latitude": 12.9852,
    "longitude": 80.1788,
    "date": "2024-10-29T08:14:00Z"
  },
  {
    "location": "Intermediate Point",
    "latitude": 12.9831,
    "longitude": 80.1767,
    "date": "2024-10-29T08:14:30Z"
  },
  {
    "location": "Intermediate Point",
    "latitude": 12.9806,
    "longitude": 80.1752,
    "date": "2024-10-29T08:15:00Z"
  },
  {
    "location": "Tirusulam",
    "latitude": 12.9794,
    "longitude": 80.1749,
    "date": "2024-10-29T08:17:00Z"
  },
  {
    "location": "Intermediate Point",
    "latitude": 12.9756,
    "longitude": 80.1722,
    "date": "2024-10-29T08:18:00Z"
  },
  {
    "location": "Intermediate Point",
    "latitude": 12.9723,
    "longitude": 80.1698,
    "date": "2024-10-29T08:18:30Z"
  },
  {
    "location": "Intermediate Point",
    "latitude": 12.9705,
    "longitude": 80.1663,
    "date": "2024-10-29T08:19:00Z"
  },
  {
    "location": "Intermediate Point",
    "latitude": 12.9692,
    "longitude": 80.1625,
    "date": "2024-10-29T08:19:30Z"
  },
  {
    "location": "Intermediate Point",
    "latitude": 12.9689,
    "longitude": 80.1553,
    "date": "2024-10-29T08:20:00Z"
  },
  {
    "location": "Pallavaram",
    "latitude": 12.9687,
    "longitude": 80.1503,
    "date": "2024-10-29T08:21:00Z"
  },
  {
    "location": "Intermediate Point",
    "latitude": 12.9642,
    "longitude": 80.1459,
    "date": "2024-10-29T08:22:00Z"
  },
  {
    "location": "Intermediate Point",
    "latitude": 12.9604,
    "longitude": 80.1427,
    "date": "2024-10-29T08:22:30Z"
  },
  {
    "location": "Intermediate Point",
    "latitude": 12.9587,
    "longitude": 80.1414,
    "date": "2024-10-29T08:23:00Z"
  },
  {
    "location": "Intermediate Point",
    "latitude": 12.9574,
    "longitude": 80.1406,
    "date": "2024-10-29T08:23:30Z"
  },
  {
    "location": "Pammal",
    "latitude": 12.9564,
    "longitude": 80.1402,
    "date": "2024-10-29T08:25:00Z"
  },
  {
    "location": "Intermediate Point",
    "latitude": 12.9529,
    "longitude": 80.1394,
    "date": "2024-10-29T08:26:00Z"
  },
  {
    "location": "Intermediate Point",
    "latitude": 12.9514,
    "longitude": 80.1389,
    "date": "2024-10-29T08:27:00Z"
  },
  {
    "location": "Chromepet",
    "latitude": 12.9495,
    "longitude": 80.1385,
    "date": "2024-10-29T08:29:00Z"
  },
  {
    "location": "Intermediate Point",
    "latitude": 12.9456,
    "longitude": 80.1369,
    "date": "2024-10-29T08:30:00Z"
  },
  {
    "location": "Intermediate Point",
    "latitude": 12.943,
    "longitude": 80.1348,
    "date": "2024-10-29T08:31:00Z"
  },
  {
    "location": "Hasthinapuram",
    "latitude": 12.9386,
    "longitude": 80.1329,
    "date": "2024-10-29T08:32:00Z"
  },
  {
    "location": "Intermediate Point",
    "latitude": 12.9318,
    "longitude": 80.1297,
    "date": "2024-10-29T08:33:00Z"
  },
  {
    "location": "Intermediate Point",
    "latitude": 12.9279,
    "longitude": 80.1272,
    "date": "2024-10-29T08:34:00Z"
  },
  {
    "location": "Tambaram Sanatorium",
    "latitude": 12.9249,
    "longitude": 80.1256,
    "date": "2024-10-29T08:36:00Z"
  },
  {
    "location": "Intermediate Point",
    "latitude": 12.9228,
    "longitude": 80.1239,
    "date": "2024-10-29T08:37:00Z"
  },
  {
    "location": "Intermediate Point",
    "latitude": 12.9214,
    "longitude": 80.1214,
    "date": "2024-10-29T08:39:00Z"
  },
  {
    "location": "Tambaram",
    "latitude": 12.9204,
    "longitude": 80.1189,
    "date": "2024-10-29T08:40:00Z"
  },
  {
    "location": "Chengalpattu",
    "latitude": 12.7192,
    "longitude": 79.9842,
    "date": "2024-10-28T08:00:00Z",
    "vehicle": {
      "type": "bus",
      "number": "TN-09-AB-1234",
      "driver": "Arun Kumar"
    },
    "distance_km": 0,
    "direction": "north",
    "speed_kmh": 0,
    "next_stop": "Maraimalai Nagar",
    "previous_stop": "Starting Point"
  },
  {
    "location": "Intermediate Point 1",
    "latitude": 12.7234,
    "longitude": 79.9885,
    "date": "2024-10-28T08:02:00Z",
    "vehicle": {
      "type": "bus",
      "number": "TN-09-AB-1234",
      "driver": "Arun Kumar"
    },
    "distance_km": 2,
    "direction": "north",
    "speed_kmh": 20,
    "next_stop": "Maraimalai Nagar",
    "previous_stop": "Chengalpattu"
  },
  {
    "location": "Maraimalai Nagar",
    "latitude": 12.7239,
    "longitude": 79.9921,
    "date": "2024-10-28T08:05:00Z",
    "vehicle": {
      "type": "bus",
      "number": "TN-09-AB-1234",
      "driver": "Arun Kumar"
    },
    "distance_km": 4,
    "direction": "north",
    "speed_kmh": 30,
    "next_stop": "Kakkalur",
    "previous_stop": "Intermediate Point 1"
  },
  {
    "location": "Intermediate Point 2",
    "latitude": 12.7251,
    "longitude": 79.994,
    "date": "2024-10-28T08:07:00Z",
    "vehicle": {
      "type": "bus",
      "number": "TN-09-AB-1234",
      "driver": "Arun Kumar"
    },
    "distance_km": 4.5,
    "direction": "north",
    "speed_kmh": 25,
    "next_stop": "Kakkalur",
    "previous_stop": "Maraimalai Nagar"
  },
  {
    "location": "Kakkalur",
    "latitude": 12.7271,
    "longitude": 79.9965,
    "date": "2024-10-28T08:10:00Z",
    "vehicle": {
      "type": "bus",
      "number": "TN-09-AB-1234",
      "driver": "Arun Kumar"
    },
    "distance_km": 5,
    "direction": "north",
    "speed_kmh": 30,
    "next_stop": "Sriperumbudur",
    "previous_stop": "Intermediate Point 2"
  },
  {
    "location": "Intermediate Point 3",
    "latitude": 12.7302,
    "longitude": 79.999,
    "date": "2024-10-28T08:12:30Z",
    "vehicle": {
      "type": "bus",
      "number": "TN-09-AB-1234",
      "driver": "Arun Kumar"
    },
    "distance_km": 6,
    "direction": "north",
    "speed_kmh": 28,
    "next_stop": "Sriperumbudur",
    "previous_stop": "Kakkalur"
  },
  {
    "location": "Sriperumbudur",
    "latitude": 12.8308,
    "longitude": 79.999,
    "date": "2024-10-28T08:15:00Z",
    "vehicle": {
      "type": "bus",
      "number": "TN-09-AB-1234",
      "driver": "Arun Kumar"
    },
    "distance_km": 10,
    "direction": "north",
    "speed_kmh": 35,
    "next_stop": "Poonamallee",
    "previous_stop": "Intermediate Point 3"
  },
  {
    "location": "Intermediate Point 4",
    "latitude": 12.8308,
    "longitude": 79.992,
    "date": "2024-10-28T08:18:00Z",
    "vehicle": {
      "type": "bus",
      "number": "TN-09-AB-1234",
      "driver": "Arun Kumar"
    },
    "distance_km": 11,
    "direction": "north",
    "speed_kmh": 30,
    "next_stop": "Poonamallee",
    "previous_stop": "Sriperumbudur"
  },
  {
    "location": "Poonamallee",
    "latitude": 12.9447,
    "longitude": 80.069,
    "date": "2024-10-28T08:20:00Z",
    "vehicle": {
      "type": "bus",
      "number": "TN-09-AB-1234",
      "driver": "Arun Kumar"
    },
    "distance_km": 14,
    "direction": "northeast",
    "speed_kmh": 40,
    "next_stop": "Porur",
    "previous_stop": "Intermediate Point 4"
  },
  {
    "location": "Intermediate Point 5",
    "latitude": 12.9586,
    "longitude": 80.075,
    "date": "2024-10-28T08:22:30Z",
    "vehicle": {
      "type": "bus",
      "number": "TN-09-AB-1234",
      "driver": "Arun Kumar"
    },
    "distance_km": 15,
    "direction": "northeast",
    "speed_kmh": 35,
    "next_stop": "Porur",
    "previous_stop": "Poonamallee"
  },
  {
    "location": "Porur",
    "latitude": 12.9917,
    "longitude": 80.1688,
    "date": "2024-10-28T08:25:00Z",
    "vehicle": {
      "type": "bus",
      "number": "TN-09-AB-1234",
      "driver": "Arun Kumar"
    },
    "distance_km": 18,
    "direction": "northeast",
    "speed_kmh": 45,
    "next_stop": "Maduravoyal",
    "previous_stop": "Intermediate Point 5"
  },
  {
    "location": "Intermediate Point 6",
    "latitude": 13.01,
    "longitude": 80.175,
    "date": "2024-10-28T08:27:00Z",
    "vehicle": {
      "type": "bus",
      "number": "TN-09-AB-1234",
      "driver": "Arun Kumar"
    },
    "distance_km": 19,
    "direction": "northeast",
    "speed_kmh": 40,
    "next_stop": "Maduravoyal",
    "previous_stop": "Porur"
  },
  {
    "location": "Maduravoyal",
    "latitude": 13.0087,
    "longitude": 80.187,
    "date": "2024-10-28T08:30:00Z",
    "vehicle": {
      "type": "bus",
      "number": "TN-09-AB-1234",
      "driver": "Arun Kumar"
    },
    "distance_km": 22,
    "direction": "northeast",
    "speed_kmh": 42,
    "next_stop": "Ashok Nagar",
    "previous_stop": "Intermediate Point 6"
  },
  {
    "location": "Intermediate Point 7",
    "latitude": 13.0436,
    "longitude": 80.1846,
    "date": "2024-10-28T08:32:30Z",
    "vehicle": {
      "type": "bus",
      "number": "TN-09-AB-1234",
      "driver": "Arun Kumar"
    },
    "distance_km": 23,
    "direction": "northeast",
    "speed_kmh": 38,
    "next_stop": "Ashok Nagar",
    "previous_stop": "Maduravoyal"
  },
  {
    "location": "Ashok Nagar",
    "latitude": 13.053,
    "longitude": 80.2027,
    "date": "2024-10-28T08:35:00Z",
    "vehicle": {
      "type": "bus",
      "number": "TN-09-AB-1234",
      "driver": "Arun Kumar"
    },
    "distance_km": 25,
    "direction": "northeast",
    "speed_kmh": 30,
    "next_stop": "Tambaram",
    "previous_stop": "Intermediate Point 7"
  },
  {
    "location": "Intermediate Point 8",
    "latitude": 13.065,
    "longitude": 80.2167,
    "date": "2024-10-28T08:37:30Z",
    "vehicle": {
      "type": "bus",
      "number": "TN-09-AB-1234",
      "driver": "Arun Kumar"
    },
    "distance_km": 26,
    "direction": "northeast",
    "speed_kmh": 28,
    "next_stop": "Tambaram",
    "previous_stop": "Ashok Nagar"
  },
  {
    "location": "Tambaram",
    "latitude": 12.9055,
    "longitude": 80.1745,
    "date": "2024-10-28T08:40:00Z",
    "vehicle": {
      "type": "bus",
      "number": "TN-09-AB-1234",
      "driver": "Arun Kumar"
    },
    "distance_km": 28,
    "direction": "northeast",
    "speed_kmh": 30,
    "next_stop": "Destination",
    "previous_stop": "Intermediate Point 8"
  },
  {
    "location": "Villupuram Railway Station",
    "latitude": 11.933,
    "longitude": 79.4836,
    "date": "2024-10-30T09:00:00Z",
    "speed_kmh": 0,
    "direction": "N/A",
    "distance_km": 0,
    "vehicle": {
      "type": "Car",
      "number": "TN01AB1234",
      "driver": "John Doe"
    }
  },
  {
    "location": "Kakkaveri",
    "latitude": 11.95,
    "longitude": 79.485,
    "date": "2024-10-30T09:10:00Z",
    "speed_kmh": 20,
    "direction": "S",
    "distance_km": 5,
    "vehicle": {
      "type": "Car",
      "number": "TN01AB1234",
      "driver": "John Doe"
    }
  },
  {
    "location": "Thiruvalluvar Nagar",
    "latitude": 11.967,
    "longitude": 79.49,
    "date": "2024-10-30T09:15:00Z",
    "speed_kmh": 25,
    "direction": "S",
    "distance_km": 10,
    "vehicle": {
      "type": "Car",
      "number": "TN01AB1234",
      "driver": "John Doe"
    }
  },
  {
    "location": "Nedungundram",
    "latitude": 11.98,
    "longitude": 79.495,
    "date": "2024-10-30T09:20:00Z",
    "speed_kmh": 30,
    "direction": "S",
    "distance_km": 15,
    "vehicle": {
      "type": "Car",
      "number": "TN01AB1234",
      "driver": "John Doe"
    }
  },
  {
    "location": "Mangalampet",
    "latitude": 11.99,
    "longitude": 79.5,
    "date": "2024-10-30T09:30:00Z",
    "speed_kmh": 35,
    "direction": "S",
    "distance_km": 20,
    "vehicle": {
      "type": "Car",
      "number": "TN01AB1234",
      "driver": "John Doe"
    }
  },
  {
    "location": "Brahmadesam",
    "latitude": 11.995,
    "longitude": 79.51,
    "date": "2024-10-30T09:35:00Z",
    "speed_kmh": 40,
    "direction": "S",
    "distance_km": 25,
    "vehicle": {
      "type": "Car",
      "number": "TN01AB1234",
      "driver": "John Doe"
    }
  },
  {
    "location": "Chinna Salem",
    "latitude": 12.0,
    "longitude": 79.515,
    "date": "2024-10-30T09:45:00Z",
    "speed_kmh": 45,
    "direction": "S",
    "distance_km": 30,
    "vehicle": {
      "type": "Car",
      "number": "TN01AB1234",
      "driver": "John Doe"
    }
  },
  {
    "location": "Vikramasingapuram",
    "latitude": 12.01,
    "longitude": 79.525,
    "date": "2024-10-30T09:50:00Z",
    "speed_kmh": 50,
    "direction": "S",
    "distance_km": 35,
    "vehicle": {
      "type": "Car",
      "number": "TN01AB1234",
      "driver": "John Doe"
    }
  },
  {
    "location": "Salem",
    "latitude": 12.02,
    "longitude": 79.535,
    "date": "2024-10-30T10:00:00Z",
    "speed_kmh": 55,
    "direction": "S",
    "distance_km": 40,
    "vehicle": {
      "type": "Car",
      "number": "TN01AB1234",
      "driver": "John Doe"
    }
  },
  {
    "location": "Kallakurichi",
    "latitude": 12.03,
    "longitude": 79.545,
    "date": "2024-10-30T10:05:00Z",
    "speed_kmh": 60,
    "direction": "S",
    "distance_km": 45,
    "vehicle": {
      "type": "Car",
      "number": "TN01AB1234",
      "driver": "John Doe"
    }
  },
  {
    "location": "Ulundurpet",
    "latitude": 12.04,
    "longitude": 79.55,
    "date": "2024-10-30T10:10:00Z",
    "speed_kmh": 55,
    "direction": "S",
    "distance_km": 50,
    "vehicle": {
      "type": "Car",
      "number": "TN01AB1234",
      "driver": "John Doe"
    }
  },
  {
    "location": "Kottakkal",
    "latitude": 12.05,
    "longitude": 79.56,
    "date": "2024-10-30T10:15:00Z",
    "speed_kmh": 50,
    "direction": "S",
    "distance_km": 55,
    "vehicle": {
      "type": "Car",
      "number": "TN01AB1234",
      "driver": "John Doe"
    }
  },
  {
    "location": "Tindivanam",
    "latitude": 12.06,
    "longitude": 79.57,
    "date": "2024-10-30T10:25:00Z",
    "speed_kmh": 45,
    "direction": "S",
    "distance_km": 60,
    "vehicle": {
      "type": "Car",
      "number": "TN01AB1234",
      "driver": "John Doe"
    }
  },
  {
    "location": "Vandavasi",
    "latitude": 12.07,
    "longitude": 79.58,
    "date": "2024-10-30T10:30:00Z",
    "speed_kmh": 40,
    "direction": "S",
    "distance_km": 65,
    "vehicle": {
      "type": "Car",
      "number": "TN01AB1234",
      "driver": "John Doe"
    }
  },
  {
    "location": "Cheyyar",
    "latitude": 12.08,
    "longitude": 79.59,
    "date": "2024-10-30T10:40:00Z",
    "speed_kmh": 35,
    "direction": "S",
    "distance_km": 70,
    "vehicle": {
      "type": "Car",
      "number": "TN01AB1234",
      "driver": "John Doe"
    }
  },
  {
    "location": "Kanchipuram",
    "latitude": 12.09,
    "longitude": 79.6,
    "date": "2024-10-30T10:45:00Z",
    "speed_kmh": 30,
    "direction": "S",
    "distance_km": 75,
    "vehicle": {
      "type": "Car",
      "number": "TN01AB1234",
      "driver": "John Doe"
    }
  },
  {
    "location": "Sriperumbudur",
    "latitude": 12.1,
    "longitude": 79.61,
    "date": "2024-10-30T10:55:00Z",
    "speed_kmh": 25,
    "direction": "S",
    "distance_km": 80,
    "vehicle": {
      "type": "Car",
      "number": "TN01AB1234",
      "driver": "John Doe"
    }
  },
  {
    "location": "Porur",
    "latitude": 12.11,
    "longitude": 79.62,
    "date": "2024-10-30T11:00:00Z",
    "speed_kmh": 20,
    "direction": "S",
    "distance_km": 85,
    "vehicle": {
      "type": "Car",
      "number": "TN01AB1234",
      "driver": "John Doe"
    }
  },
  {
    "location": "Tambaram",
    "latitude": 12.12,
    "longitude": 79.63,
    "date": "2024-10-30T11:15:00Z",
    "speed_kmh": 10,
    "direction": "S",
    "distance_km": 90,
    "vehicle": {
      "type": "Car",
      "number": "TN01AB1234",
      "driver": "John Doe"
    }
  },
  {
    "location": "Tambaram Railway Station",
    "latitude": 12.12,
    "longitude": 79.635,
    "date": "2024-10-30T11:30:00Z",
    "speed_kmh": 0,
    "direction": "N/A",
    "distance_km": 90,
    "vehicle": {
      "type": "Car",
      "number": "TN01AB1234",
      "driver": "John Doe"
    }
  },
  {
    "location": "Madurai Railway Station",
    "latitude": 9.9251,
    "longitude": 78.1197,
    "date": "2024-10-27T08:00:00Z",
    "speed_kmh": 0,
    "direction": "N/A",
    "distance_km": 0,
    "vehicle": {
      "type": "Train",
      "number": "MDU1234",
      "driver": "Rajesh Kumar"
    }
  },
  {
    "location": "Thirumangalam",
    "latitude": 9.9522,
    "longitude": 78.1389,
    "date": "2024-10-27T08:15:00Z",
    "speed_kmh": 40,
    "direction": "N",
    "distance_km": 8,
    "vehicle": {
      "type": "Train",
      "number": "MDU1234",
      "driver": "Rajesh Kumar"
    }
  },
  {
    "location": "Kalligudi",
    "latitude": 9.8795,
    "longitude": 78.1563,
    "date": "2024-10-27T08:30:00Z",
    "speed_kmh": 60,
    "direction": "N",
    "distance_km": 16,
    "vehicle": {
      "type": "Train",
      "number": "MDU1234",
      "driver": "Rajesh Kumar"
    }
  },
  {
    "location": "Sivakasi",
    "latitude": 9.4023,
    "longitude": 78.1856,
    "date": "2024-10-27T08:45:00Z",
    "speed_kmh": 70,
    "direction": "N",
    "distance_km": 24,
    "vehicle": {
      "type": "Train",
      "number": "MDU1234",
      "driver": "Rajesh Kumar"
    }
  },
  {
    "location": "Virudhunagar",
    "latitude": 9.4698,
    "longitude": 78.1778,
    "date": "2024-10-27T09:00:00Z",
    "speed_kmh": 65,
    "direction": "N",
    "distance_km": 30,
    "vehicle": {
      "type": "Train",
      "number": "MDU1234",
      "driver": "Rajesh Kumar"
    }
  },
  {
    "location": "Kottaiyur",
    "latitude": 9.4424,
    "longitude": 78.1968,
    "date": "2024-10-27T09:15:00Z",
    "speed_kmh": 60,
    "direction": "N",
    "distance_km": 35,
    "vehicle": {
      "type": "Train",
      "number": "MDU1234",
      "driver": "Rajesh Kumar"
    }
  },
  {
    "location": "Srivilliputhur",
    "latitude": 9.2948,
    "longitude": 78.2395,
    "date": "2024-10-27T09:30:00Z",
    "speed_kmh": 55,
    "direction": "N",
    "distance_km": 42,
    "vehicle": {
      "type": "Train",
      "number": "MDU1234",
      "driver": "Rajesh Kumar"
    }
  },
  {
    "location": "Rajapalayam",
    "latitude": 9.4267,
    "longitude": 78.5377,
    "date": "2024-10-27T09:45:00Z",
    "speed_kmh": 65,
    "direction": "N",
    "distance_km": 50,
    "vehicle": {
      "type": "Train",
      "number": "MDU1234",
      "driver": "Rajesh Kumar"
    }
  },
  {
    "location": "Sakkottai",
    "latitude": 9.3826,
    "longitude": 78.5713,
    "date": "2024-10-27T10:00:00Z",
    "speed_kmh": 60,
    "direction": "N",
    "distance_km": 58,
    "vehicle": {
      "type": "Train",
      "number": "MDU1234",
      "driver": "Rajesh Kumar"
    }
  },
  {
    "location": "Sivagiri",
    "latitude": 9.3896,
    "longitude": 78.5883,
    "date": "2024-10-27T10:15:00Z",
    "speed_kmh": 70,
    "direction": "N",
    "distance_km": 65,
    "vehicle": {
      "type": "Train",
      "number": "MDU1234",
      "driver": "Rajesh Kumar"
    }
  },
  {
    "location": "Sivaganga",
    "latitude": 9.8677,
    "longitude": 78.5791,
    "date": "2024-10-27T10:30:00Z",
    "speed_kmh": 75,
    "direction": "N",
    "distance_km": 72,
    "vehicle": {
      "type": "Train",
      "number": "MDU1234",
      "driver": "Rajesh Kumar"
    }
  },
  {
    "location": "Kumaralingam",
    "latitude": 9.6146,
    "longitude": 78.3736,
    "date": "2024-10-27T10:45:00Z",
    "speed_kmh": 80,
    "direction": "N",
    "distance_km": 80,
    "vehicle": {
      "type": "Train",
      "number": "MDU1234",
      "driver": "Rajesh Kumar"
    }
  },
  {
    "location": "Thirupuvanam",
    "latitude": 9.8778,
    "longitude": 78.3411,
    "date": "2024-10-27T11:00:00Z",
    "speed_kmh": 65,
    "direction": "N",
    "distance_km": 88,
    "vehicle": {
      "type": "Train",
      "number": "MDU1234",
      "driver": "Rajesh Kumar"
    }
  },
  {
    "location": "Melur",
    "latitude": 9.946,
    "longitude": 78.3161,
    "date": "2024-10-27T11:15:00Z",
    "speed_kmh": 70,
    "direction": "N",
    "distance_km": 95,
    "vehicle": {
      "type": "Train",
      "number": "MDU1234",
      "driver": "Rajesh Kumar"
    }
  },
  {
    "location": "Vadipatti",
    "latitude": 9.9233,
    "longitude": 78.2741,
    "date": "2024-10-27T11:30:00Z",
    "speed_kmh": 65,
    "direction": "N",
    "distance_km": 102,
    "vehicle": {
      "type": "Train",
      "number": "MDU1234",
      "driver": "Rajesh Kumar"
    }
  },
  {
    "location": "Muthupet",
    "latitude": 9.8141,
    "longitude": 78.2185,
    "date": "2024-10-27T11:45:00Z",
    "speed_kmh": 75,
    "direction": "N",
    "distance_km": 108,
    "vehicle": {
      "type": "Train",
      "number": "MDU1234",
      "driver": "Rajesh Kumar"
    }
  },
  {
    "location": "Tiruchirappalli",
    "latitude": 10.7905,
    "longitude": 78.7047,
    "date": "2024-10-27T12:00:00Z",
    "speed_kmh": 0,
    "direction": "N/A",
    "distance_km": 115,
    "vehicle": {
      "type": "Train",
      "number": "MDU1234",
      "driver": "Rajesh Kumar"
    }
  },
  {
    "location": "Srirangam",
    "latitude": 10.8034,
    "longitude": 78.7067,
    "date": "2024-10-27T12:15:00Z",
    "speed_kmh": 0,
    "direction": "N/A",
    "distance_km": 116,
    "vehicle": {
      "type": "Train",
      "number": "MDU1234",
      "driver": "Rajesh Kumar"
    }
  },
  {
    "location": "Tiruchirappalli Junction",
    "latitude": 10.7905,
    "longitude": 78.7047,
    "date": "2024-10-27T12:30:00Z",
    "speed_kmh": 0,
    "direction": "N/A",
    "distance_km": 117,
    "vehicle": {
      "type": "Train",
      "number": "MDU1234",
      "driver": "Rajesh Kumar"
    }
  },
  {
    "location": "Kattur",
    "latitude": 10.764,
    "longitude": 78.7442,
    "date": "2024-10-27T12:45:00Z",
    "speed_kmh": 0,
    "direction": "N/A",
    "distance_km": 118,
    "vehicle": {
      "type": "Train",
      "number": "MDU1234",
      "driver": "Rajesh Kumar"
    }
  },
  {
    "location": "Srirangam",
    "latitude": 10.8034,
    "longitude": 78.7067,
    "date": "2024-10-27T13:00:00Z",
    "speed_kmh": 0,
    "direction": "N/A",
    "distance_km": 119,
    "vehicle": {
      "type": "Train",
      "number": "MDU1234",
      "driver": "Rajesh Kumar"
    }
  },
  {
    "location": "Puthanampatti",
    "latitude": 10.7711,
    "longitude": 78.6462,
    "date": "2024-10-27T13:15:00Z",
    "speed_kmh": 0,
    "direction": "N/A",
    "distance_km": 120,
    "vehicle": {
      "type": "Train",
      "number": "MDU1234",
      "driver": "Rajesh Kumar"
    }
  },
  {
    "location": "Thuraiyur",
    "latitude": 10.7746,
    "longitude": 78.7181,
    "date": "2024-10-27T13:30:00Z",
    "speed_kmh": 0,
    "direction": "N/A",
    "distance_km": 121,
    "vehicle": {
      "type": "Train",
      "number": "MDU1234",
      "driver": "Rajesh Kumar"
    }
  },
  {
    "location": "Muthupettai",
    "latitude": 10.5543,
    "longitude": 78.5409,
    "date": "2024-10-27T13:45:00Z",
    "speed_kmh": 0,
    "direction": "N/A",
    "distance_km": 122,
    "vehicle": {
      "type": "Train",
      "number": "MDU1234",
      "driver": "Rajesh Kumar"
    }
  },
  {
    "location": "Tiruchirappalli",
    "latitude": 10.7905,
    "longitude": 78.7047,
    "date": "2024-10-27T14:00:00Z",
    "speed_kmh": 0,
    "direction": "N/A",
    "distance_km": 123,
    "vehicle": {
      "type": "Train",
      "number": "MDU1234",
      "driver": "Rajesh Kumar"
    }
  },
  {
    "location": "Muthupettai",
    "latitude": 10.5543,
    "longitude": 78.5409,
    "date": "2024-10-27T14:15:00Z",
    "speed_kmh": 0,
    "direction": "N/A",
    "distance_km": 124,
    "vehicle": {
      "type": "Train",
      "number": "MDU1234",
      "driver": "Rajesh Kumar"
    }
  },
  {
    "location": "Thuraiyur",
    "latitude": 10.7746,
    "longitude": 78.7181,
    "date": "2024-10-27T14:30:00Z",
    "speed_kmh": 0,
    "direction": "N/A",
    "distance_km": 125,
    "vehicle": {
      "type": "Train",
      "number": "MDU1234",
      "driver": "Rajesh Kumar"
    }
  },
  {
    "location": "Puthanampatti",
    "latitude": 10.7711,
    "longitude": 78.6462,
    "date": "2024-10-27T14:45:00Z",
    "speed_kmh": 0,
    "direction": "N/A",
    "distance_km": 126,
    "vehicle": {
      "type": "Train",
      "number": "MDU1234",
      "driver": "Rajesh Kumar"
    }
  },
  {
    "location": "Srirangam",
    "latitude": 10.8034,
    "longitude": 78.7067,
    "date": "2024-10-27T15:00:00Z",
    "speed_kmh": 0,
    "direction": "N/A",
    "distance_km": 127,
    "vehicle": {
      "type": "Train",
      "number": "MDU1234",
      "driver": "Rajesh Kumar"
    }
  },
  {
    "location": "Tiruchirappalli Junction",
    "latitude": 10.7905,
    "longitude": 78.7047,
    "date": "2024-10-27T15:15:00Z",
    "speed_kmh": 0,
    "direction": "N/A",
    "distance_km": 128,
    "vehicle": {
      "type": "Train",
      "number": "MDU1234",
      "driver": "Rajesh Kumar"
    }
  },
  {
    "location": "Kattur",
    "latitude": 10.764,
    "longitude": 78.7442,
    "date": "2024-10-27T15:30:00Z",
    "speed_kmh": 0,
    "direction": "N/A",
    "distance_km": 129,
    "vehicle": {
      "type": "Train",
      "number": "MDU1234",
      "driver": "Rajesh Kumar"
    }
  },
  {
    "location": "Tiruchirappalli",
    "latitude": 10.7905,
    "longitude": 78.7047,
    "date": "2024-10-27T15:45:00Z",
    "speed_kmh": 0,
    "direction": "N/A",
    "distance_km": 130,
    "vehicle": {
      "type": "Train",
      "number": "MDU1234",
      "driver": "Rajesh Kumar"
    }
  }
]
